Id,Address,Lat,Lon
0,"63 Main Gulberg Rd, Main Gulberg, Lahore, Punjab, Pakistan",31.527565,74.3494298
1,"G962+FCG، Ali Towers، MM Alam Rd, Block B 2 Gulberg III, Lahore, Punjab 54660, Pakistan",31.5111809,74.3510736
2,"Fortress Square Mall, Fortress Stadium, Lahore 54000, 54000, Pakistan",31.5318483,74.36420199999999
3,"89-B Jail Rd, G.O.R. - I, Lahore, Punjab 54810, Pakistan",31.53863909999999,74.3368649
4,"635 D.H.A. Main Blvd, Phase IV Sector Z DHA Phase 3, Lahore, Punjab, Pakistan",31.4759849,74.37688399999999
5,"No، 13, Kashmir Block Allama Iqbal Town, Lahore, Punjab 54000, Pakistan",31.5197175,74.2906555
6,"F9C4+445 Packages Mall, Nishtar Town, Lahore, Punjab, Pakistan",31.4702569,74.3553502
7,"Plot #14 and Plot # 15، Wahdat Rd, Hidayatullah Block Mustafa Town, Lahore, Punjab, Pakistan",31.4984363,74.2736323
8,"G9HH+PFQ، Aziz Bhatti Road, Mall Of Lahore، Cantt, Lahore, Punjab, Pakistan",31.5293482,74.37872449999999
9,"Emporium Mall, Abdul Haque Rd, Trade Centre Commercial Area Phase 2 Johar Town, Lahore, Punjab 54000, Pakistan",31.4674986,74.2660872
10,"F9MV+4G2, D.H.A, State Life Phase-I Main Blvd, Sector G Dha Phase 1, Lahore, Punjab, Pakistan",31.48274859999999,74.39376229999999
11,"F888+G73, Amanah Mall،, Model Town Link Rd, G.E.C.H.S. Phase 2 Muhammadpura, Lahore, Punjab 54600, Pakistan",31.4662454,74.3156612
12,"Nazaria-e-Pakistan Ave, Block J2 Block B Dha Rahbar Phase 1 Johar Town, Lahore, Punjab 54000, Pakistan",31.39276899999999,74.24914
13,"27 Near Sorahi Chowk، CC-Block Cc Block Sector D Bahria Town, Lahore, Punjab 53720, Pakistan",31.3743701,74.1782558
14,"GC4G+25M, رنگ روڈ, Sector Y DHA Phase 8, Lahore, Punjab, Pakistan",31.5050926,74.4254114
15,"FC78+3H8, Sector C Phase 5 D.H.A, Lahore, Punjab, Pakistan",31.4626023,74.41644380000001
16,"J2, J2 Block Block J 2 Phase 2 Johar Town, Lahore, Punjab 54600, Pakistan",31.4669709,74.25193519999999
17,"Plot 857, Sector Z1 Sector Z Phase 7, Lahore, Punjab, Pakistan",31.45857749999999,74.4848708
